{"directed": false, "graph": [["DateObtained", "14/01/11"], ["GeoLocation", "USA"], ["GeoExtent", "Country"], ["DateModifier", "="], ["Customer", 1], ["Network", "UUNET"], ["IX", 0], ["Provenance", "Secondary"], ["Access", 1], ["Source", "http://www.nthelp.com/images/uunet.jpg"], ["Version", "1.0"], ["DateMonth", "01"], ["DateYear", "2011"], ["Type", "COM"], ["LastAccess", "14/01/11"], ["Layer", "IP"], ["Creator", "Topology Zoo Toolset"], ["DateType", "Current"], ["SourceGitVersion", "e278b1b"], ["Backbone", 1], ["Commercial", 0], ["NetworkDate", "2011_01"], ["label", "Uunet"], ["LastProcessed", "2011_09_01"], ["Testbed", 0], ["Developed", 1], ["ToolsetVersion", "0.3.34dev-20120328"], ["Transit", 0]], "nodes": [{"Internal": 1, "Latitude": 45.50884, "Country": "Canada", "id": 0, "Longitude": -73.58781, "label": "Montreal"}, {"Internal": 1, "Latitude": 44.646, "Country": "Canada", "id": 1, "Longitude": -63.57333, "label": "Halifax"}, {"Internal": 1, "Latitude": 42.98339, "Country": "Canada", "id": 2, "Longitude": -81.23304, "label": "London"}, {"Internal": 1, "Latitude": 45.41117, "Country": "Canada", "id": 3, "Longitude": -75.69812, "label": "Ottawa"}, {"Internal": 1, "Latitude": 40.71427, "Country": "United States", "id": 4, "Longitude": -74.00597, "label": "New York"}, {"Internal": 1, "Latitude": 39.95234, "Country": "United States", "id": 5, "Longitude": -75.16379, "label": "Philadelphia"}, {"Internal": 1, "Latitude": 42.35843, "Country": "United States", "id": 6, "Longitude": -71.05977, "label": "Boston"}, {"Internal": 1, "Latitude": 41.76371, "Country": "United States", "id": 7, "Longitude": -72.68509, "label": "Hartford"}, {"Internal": 1, "Latitude": 39.29038, "Country": "United States", "id": 8, "Longitude": -76.61219, "label": "Baltimore"}, {"Internal": 1, "Latitude": 38.89511, "Country": "United States", "id": 9, "Longitude": -77.03637, "label": "Washington, DC"}, {"Internal": 0, "id": 10, "label": "Stockholm"}, {"Internal": 0, "id": 11, "label": "London"}, {"Internal": 1, "Latitude": 30.26715, "Country": "United States", "id": 12, "Longitude": -97.74306, "label": "Austin"}, {"Internal": 1, "Latitude": 32.78306, "Country": "United States", "id": 13, "Longitude": -96.80667, "label": "Dallas"}, {"Internal": 1, "Latitude": 29.76328, "Country": "United States", "id": 14, "Longitude": -95.36327, "label": "Houston"}, {"Internal": 1, "Latitude": 29.95465, "Country": "United States", "id": 15, "Longitude": -90.07507, "label": "New Orleans"}, {"Internal": 1, "Latitude": 30.33218, "Country": "United States", "id": 16, "Longitude": -81.65565, "label": "Jacksonville"}, {"Internal": 1, "Latitude": 28.53834, "Country": "United States", "id": 17, "Longitude": -81.37924, "label": "Orlando"}, {"Internal": 1, "Latitude": 25.77427, "Country": "United States", "id": 18, "Longitude": -80.19366, "label": "Miami"}, {"Internal": 0, "id": 19, "label": "Monaco"}, {"Internal": 1, "Latitude": 42.88645, "Country": "United States", "id": 20, "Longitude": -78.87837, "label": "Buffalo"}, {"Internal": 1, "Latitude": 41.4995, "Country": "United States", "id": 21, "Longitude": -81.69541, "label": "Cleveland"}, {"Internal": 0, "id": 22, "label": "Cologne"}, {"Internal": 1, "Latitude": 40.44062, "Country": "United States", "id": 23, "Longitude": -79.99589, "label": "Pittsburgh"}, {"Internal": 1, "Latitude": 42.33143, "Country": "United States", "id": 24, "Longitude": -83.04575, "label": "Detroit"}, {"Internal": 1, "Latitude": 41.85003, "Country": "United States", "id": 25, "Longitude": -87.65005, "label": "Chicago"}, {"Internal": 1, "Latitude": 39.76838, "Country": "United States", "id": 26, "Longitude": -86.15804, "label": "Indianapolis"}, {"Internal": 1, "Latitude": 39.11417, "Country": "United States", "id": 27, "Longitude": -94.62746, "label": "Kansas City"}, {"Internal": 1, "Latitude": 38.62727, "Country": "United States", "id": 28, "Longitude": -90.19789, "label": "St Louis"}, {"Internal": 1, "Latitude": 53.55014, "Country": "Canada", "id": 29, "Longitude": -113.46871, "label": "Edmonton"}, {"Internal": 0, "id": 30, "label": "Tokyo"}, {"Internal": 1, "Latitude": 34.05223, "Country": "United States", "id": 31, "Longitude": -118.24368, "label": "Los Angeles"}, {"Internal": 1, "Latitude": 36.17497, "Country": "United States", "id": 32, "Longitude": -115.13722, "label": "Las Vegas"}, {"Internal": 1, "Latitude": 33.749, "Country": "United States", "id": 33, "Longitude": -84.38798, "label": "Atlanta"}, {"Internal": 1, "Latitude": 35.7721, "Country": "United States", "id": 34, "Longitude": -78.63861, "label": "Raleigh"}, {"Internal": 0, "id": 35, "label": "Hawaii"}, {"Internal": 0, "id": 36, "label": "Hawaii"}, {"Internal": 1, "Latitude": 33.44838, "Country": "United States", "id": 37, "Longitude": -112.07404, "label": "Phoenix"}, {"Internal": 1, "Latitude": 32.71533, "Country": "United States", "id": 38, "Longitude": -117.15726, "label": "San Diego"}, {"Internal": 1, "Latitude": 43.70011, "Country": "Canada", "id": 39, "Longitude": -79.4163, "label": "Toronto"}, {"Internal": 1, "Latitude": 43.4501, "Country": "Canada", "id": 40, "Longitude": -80.48299, "label": "Kitchener"}, {"Internal": 1, "Latitude": 51.05011, "Country": "Canada", "id": 41, "Longitude": -114.08529, "label": "Calgary"}, {"Internal": 1, "Latitude": 49.24966, "Country": "Canada", "id": 42, "Longitude": -123.11934, "label": "Vancouver"}, {"Internal": 1, "Latitude": 47.60621, "Country": "United States", "id": 43, "Longitude": -122.33207, "label": "Seattle"}, {"Internal": 1, "Latitude": 45.52345, "Country": "United States", "id": 44, "Longitude": -122.67621, "label": "Portland"}, {"Internal": 1, "Latitude": 37.77493, "Country": "United States", "id": 45, "Longitude": -122.41942, "label": "San Francisco"}, {"Internal": 1, "Latitude": 40.76078, "Country": "United States", "id": 46, "Longitude": -111.89105, "label": "Salt Lake City"}, {"Internal": 1, "Latitude": 39.73915, "Country": "United States", "id": 47, "Longitude": -104.9847, "label": "Denver"}, {"Internal": 1, "Latitude": 44.97997, "Country": "United States", "id": 48, "Longitude": -93.26384, "label": "Minneapolis"}], "links": [{"LinkType": "DS-3", "source": 0, "LinkLabel": "45 Mbps DS-3", "LinkNote": "45 Mbps ", "target": 1}, {"LinkType": "DS-3", "source": 0, "LinkLabel": "45 Mbps DS-3", "LinkNote": "45 Mbps ", "target": 3}, {"LinkType": "DS-3", "source": 0, "LinkLabel": "45 Mbps DS-3", "LinkNote": "45 Mbps ", "target": 4}, {"LinkType": "DS-3", "source": 2, "LinkLabel": "45 Mbps DS-3", "LinkNote": "45 Mbps ", "target": 39}, {"LinkType": "DS-3", "source": 3, "LinkLabel": "45 Mbps DS-3", "LinkNote": "45 Mbps ", "target": 39}, {"LinkType": "DS-3", "source": 4, "LinkLabel": "45 Mbps DS-3", "LinkNote": "45 Mbps ", "target": 5}, {"LinkType": "DS-3", "source": 4, "LinkLabel": "45 Mbps DS-3", "LinkNote": "45 Mbps ", "target": 6}, {"LinkType": "DS-3", "source": 4, "LinkLabel": "45 Mbps DS-3", "LinkNote": "45 Mbps ", "target": 45}, {"LinkType": "DS-3", "source": 4, "LinkLabel": "45 Mbps DS-3", "LinkNote": "45 Mbps ", "target": 13}, {"LinkType": "DS-3", "source": 4, "LinkLabel": "45 Mbps DS-3", "LinkNote": "45 Mbps ", "target": 21}, {"source": 4, "id": "e35", "target": 22}, {"LinkType": "DS-3", "source": 4, "LinkLabel": "45 Mbps DS-3", "LinkNote": "45 Mbps ", "target": 25}, {"LinkType": "DS-3", "source": 5, "LinkLabel": "45 Mbps DS-3", "LinkNote": "45 Mbps ", "target": 8}, {"LinkType": "DS-3", "source": 6, "LinkLabel": "45 Mbps DS-3", "LinkNote": "45 Mbps ", "target": 9}, {"LinkType": "DS-3", "source": 6, "LinkLabel": "45 Mbps DS-3", "LinkNote": "45 Mbps ", "target": 7}, {"LinkType": "DS-3", "source": 7, "LinkLabel": "45 Mbps DS-3", "LinkNote": "45 Mbps ", "target": 20}, {"LinkType": "DS-3", "source": 8, "LinkLabel": "45 Mbps DS-3", "LinkNote": "45 Mbps ", "target": 9}, {"LinkType": "DS-3", "source": 9, "LinkLabel": "45 Mbps DS-3", "LinkNote": "45 Mbps ", "target": 33}, {"LinkType": "DS-3", "source": 9, "LinkLabel": "45 Mbps DS-3", "LinkNote": "45 Mbps ", "target": 34}, {"source": 9, "id": "e43", "target": 10}, {"source": 9, "id": "e44", "target": 11}, {"LinkType": "DS-3", "source": 9, "LinkLabel": "45 Mbps DS-3", "LinkNote": "45 Mbps ", "target": 13}, {"LinkType": "DS-3", "source": 9, "LinkLabel": "45 Mbps DS-3", "LinkNote": "45 Mbps ", "target": 14}, {"LinkType": "DS-3", "source": 9, "LinkLabel": "45 Mbps DS-3", "LinkNote": "45 Mbps ", "target": 45}, {"LinkType": "DS-3", "source": 9, "LinkLabel": "45 Mbps DS-3", "LinkNote": "45 Mbps ", "target": 23}, {"LinkType": "DS-3", "source": 9, "LinkLabel": "45 Mbps DS-3", "LinkNote": "45 Mbps ", "target": 25}, {"LinkType": "DS-3", "source": 9, "LinkLabel": "45 Mbps DS-3", "LinkNote": "45 Mbps ", "target": 27}, {"LinkType": "DS-3", "source": 9, "LinkLabel": "45 Mbps DS-3", "LinkNote": "45 Mbps ", "target": 31}, {"LinkType": "DS-3", "source": 12, "LinkLabel": "45 Mbps DS-3", "LinkNote": "45 Mbps ", "target": 13}, {"LinkType": "DS-3", "source": 12, "LinkLabel": "45 Mbps DS-3", "LinkNote": "45 Mbps ", "target": 14}, {"LinkType": "DS-3", "source": 13, "LinkLabel": "45 Mbps DS-3", "LinkNote": "45 Mbps ", "target": 33}, {"LinkType": "DS-3", "source": 13, "LinkLabel": "45 Mbps DS-3", "LinkNote": "45 Mbps ", "target": 43}, {"LinkType": "DS-3", "source": 13, "LinkLabel": "45 Mbps DS-3", "LinkNote": "45 Mbps ", "target": 45}, {"LinkType": "DS-3", "source": 13, "LinkLabel": "45 Mbps DS-3", "LinkNote": "45 Mbps ", "target": 14}, {"LinkType": "DS-3", "source": 13, "LinkLabel": "45 Mbps DS-3", "LinkNote": "45 Mbps ", "target": 25}, {"LinkType": "DS-3", "source": 13, "LinkLabel": "45 Mbps DS-3", "LinkNote": "45 Mbps ", "target": 27}, {"LinkType": "DS-3", "source": 13, "LinkLabel": "45 Mbps DS-3", "LinkNote": "45 Mbps ", "target": 31}, {"LinkType": "DS-3", "source": 14, "LinkLabel": "45 Mbps DS-3", "LinkNote": "45 Mbps ", "target": 37}, {"LinkType": "DS-3", "source": 14, "LinkLabel": "45 Mbps DS-3", "LinkNote": "45 Mbps ", "target": 15}, {"LinkType": "DS-3", "source": 14, "LinkLabel": "45 Mbps DS-3", "LinkNote": "45 Mbps ", "target": 18}, {"LinkType": "DS-3", "source": 15, "LinkLabel": "45 Mbps DS-3", "LinkNote": "45 Mbps ", "target": 17}, {"LinkType": "DS-3", "source": 15, "LinkLabel": "45 Mbps DS-3", "LinkNote": "45 Mbps ", "target": 18}, {"LinkType": "DS-3", "source": 16, "LinkLabel": "45 Mbps DS-3", "LinkNote": "45 Mbps ", "target": 33}, {"LinkType": "DS-3", "source": 16, "LinkLabel": "45 Mbps DS-3", "LinkNote": "45 Mbps ", "target": 17}, {"LinkType": "DS-3", "source": 17, "LinkLabel": "45 Mbps DS-3", "LinkNote": "45 Mbps ", "target": 18}, {"source": 18, "id": "e75", "target": 19}, {"LinkType": "DS-3", "source": 18, "LinkLabel": "45 Mbps DS-3", "LinkNote": "45 Mbps ", "target": 33}, {"LinkType": "DS-3", "source": 20, "LinkLabel": "45 Mbps DS-3", "LinkNote": "45 Mbps ", "target": 39}, {"LinkType": "DS-3", "source": 20, "LinkLabel": "45 Mbps DS-3", "LinkNote": "45 Mbps ", "target": 21}, {"LinkType": "DS-3", "source": 21, "LinkLabel": "45 Mbps DS-3", "LinkNote": "45 Mbps ", "target": 24}, {"LinkType": "DS-3", "source": 21, "LinkLabel": "45 Mbps DS-3", "LinkNote": "45 Mbps ", "target": 23}, {"LinkType": "DS-3", "source": 21, "LinkLabel": "45 Mbps DS-3", "LinkNote": "45 Mbps ", "target": 48}, {"LinkType": "DS-3", "source": 24, "LinkLabel": "45 Mbps DS-3", "LinkNote": "45 Mbps ", "target": 25}, {"LinkType": "DS-3", "source": 25, "LinkLabel": "45 Mbps DS-3", "LinkNote": "45 Mbps ", "target": 33}, {"LinkType": "DS-3", "source": 25, "LinkLabel": "45 Mbps DS-3", "LinkNote": "45 Mbps ", "target": 43}, {"LinkType": "DS-3", "source": 25, "LinkLabel": "45 Mbps DS-3", "LinkNote": "45 Mbps ", "target": 45}, {"LinkType": "DS-3", "source": 25, "LinkLabel": "45 Mbps DS-3", "LinkNote": "45 Mbps ", "target": 48}, {"LinkType": "DS-3", "source": 25, "LinkLabel": "45 Mbps DS-3", "LinkNote": "45 Mbps ", "target": 26}, {"LinkType": "DS-3", "source": 25, "LinkLabel": "45 Mbps DS-3", "LinkNote": "45 Mbps ", "target": 27}, {"LinkType": "DS-3", "source": 26, "LinkLabel": "45 Mbps DS-3", "LinkNote": "45 Mbps ", "target": 28}, {"LinkType": "DS-3", "source": 27, "LinkLabel": "45 Mbps DS-3", "LinkNote": "45 Mbps ", "target": 43}, {"LinkType": "DS-3", "source": 27, "LinkLabel": "45 Mbps DS-3", "LinkNote": "45 Mbps ", "target": 45}, {"LinkType": "DS-3", "source": 27, "LinkLabel": "45 Mbps DS-3", "LinkNote": "45 Mbps ", "target": 47}, {"LinkType": "DS-3", "source": 27, "LinkLabel": "45 Mbps DS-3", "LinkNote": "45 Mbps ", "target": 28}, {"LinkType": "DS-3", "source": 29, "LinkLabel": "45 Mbps DS-3", "LinkNote": "45 Mbps ", "target": 41}, {"source": 30, "id": "e8", "target": 43}, {"LinkType": "DS-3", "source": 31, "LinkLabel": "45 Mbps DS-3", "LinkNote": "45 Mbps ", "target": 32}, {"source": 31, "id": "e60", "target": 36}, {"LinkType": "DS-3", "source": 31, "LinkLabel": "45 Mbps DS-3", "LinkNote": "45 Mbps ", "target": 38}, {"LinkType": "DS-3", "source": 31, "LinkLabel": "45 Mbps DS-3", "LinkNote": "45 Mbps ", "target": 45}, {"LinkType": "DS-3", "source": 32, "LinkLabel": "45 Mbps DS-3", "LinkNote": "45 Mbps ", "target": 47}, {"LinkType": "DS-3", "source": 32, "LinkLabel": "45 Mbps DS-3", "LinkNote": "45 Mbps ", "target": 37}, {"LinkType": "DS-3", "source": 33, "LinkLabel": "45 Mbps DS-3", "LinkNote": "45 Mbps ", "target": 34}, {"source": 35, "id": "e17", "target": 45}, {"LinkType": "DS-3", "source": 37, "LinkLabel": "45 Mbps DS-3", "LinkNote": "45 Mbps ", "target": 38}, {"LinkType": "DS-3", "source": 39, "LinkLabel": "45 Mbps DS-3", "LinkNote": "45 Mbps ", "target": 40}, {"LinkType": "DS-3", "source": 39, "LinkLabel": "45 Mbps DS-3", "LinkNote": "45 Mbps ", "target": 41}, {"LinkType": "DS-3", "source": 41, "LinkLabel": "45 Mbps DS-3", "LinkNote": "45 Mbps ", "target": 42}, {"LinkType": "DS-3", "source": 42, "LinkLabel": "45 Mbps DS-3", "LinkNote": "45 Mbps ", "target": 43}, {"LinkType": "DS-3", "source": 43, "LinkLabel": "45 Mbps DS-3", "LinkNote": "45 Mbps ", "target": 44}, {"LinkType": "DS-3", "source": 43, "LinkLabel": "45 Mbps DS-3", "LinkNote": "45 Mbps ", "target": 45}, {"LinkType": "DS-3", "source": 44, "LinkLabel": "45 Mbps DS-3", "LinkNote": "45 Mbps ", "target": 45}, {"LinkType": "DS-3", "source": 45, "LinkLabel": "45 Mbps DS-3", "LinkNote": "45 Mbps ", "target": 46}, {"LinkType": "DS-3", "source": 46, "LinkLabel": "45 Mbps DS-3", "LinkNote": "45 Mbps ", "target": 47}], "multigraph": true}